FMT, 128, 89, FMT, BBnNZ, Type,Length,Name,Format,Columns
FMT, 115, 76, UNIT, QbZ, TimeUS,Id,Label
FMT, 114, 44, FMTU, QBNN, TimeUS,FmtType,UnitIds,MultIds
FMT, 116, 20, MULT, Qbd, TimeUS,Id,Mult
FMT, 32, 35, PARM, QNff, TimeUS,Name,Value,Default
FMT, 90, 51, GPS, QBBIHBcLLeffffB, TimeUS,I,Status,GMS,GWk,NSats,HDop,Lat,Lng,Alt,Spd,GCrs,VZ,Yaw,U
FMT, 91, 39, GPA, QBCCCCfBIHfHH, TimeUS,I,VDop,HAcc,VAcc,SAcc,YAcc,VV,SMS,Delta,Und,RTCMFU,RTCMFD
FMT, 95, 22, UBX1, QBHBBHI, TimeUS,Instance,noisePerMS,jamInd,aPower,agcCnt,config
FMT, 96, 16, UBX2, QBbBbB, TimeUS,Instance,ofsI,magI,ofsQ,magQ
FMT, 92, 42, GRAW, QIHBBddfBbB, TimeUS,WkMS,Week,numSV,sv,cpMes,prMes,doMes,mesQI,cno,lli
FMT, 93, 24, GRXH, QdHbBB, TimeUS,rcvTime,week,leapS,numMeas,recStat
FMT, 94, 41, GRXS, QddfBBBHBBBBB, TimeUS,prMes,cpMes,doMes,gnss,sv,freq,lock,cno,prD,cpD,doD,trk
FMT, 97, 23, SBPH, QIII, TimeUS,CrcError,LastInject,IARhyp
FMT, 98, 67, SBRH, QQQQQQQQ, TimeUS,msg_flag,1,2,3,4,5,6
FMT, 99, 123, SBRM, QQQQQQQQQQQQQQQ, TimeUS,msg_flag,1,2,3,4,5,6,7,8,9,10,11,12,13
FMT, 100, 23, SBRE, QHIiBB, TimeUS,GWk,GMS,ns_residual,level,quality
FMT, 59, 75, MSG, QZ, TimeUS,Message
FMT, 60, 39, RCIN, QHHHHHHHHHHHHHH, TimeUS,C1,C2,C3,C4,C5,C6,C7,C8,C9,C10,C11,C12,C13,C14
FMT, 61, 18, RCI2, QHHHB, TimeUS,C15,C16,OMask,Flags
FMT, 62, 39, RCOU, QHHHHHHHHHHHHHH, TimeUS,C1,C2,C3,C4,C5,C6,C7,C8,C9,C10,C11,C12,C13,C14
FMT, 202, 19, RCO2, QHHHH, TimeUS,C15,C16,C17,C18
FMT, 203, 39, RCO3, QHHHHHHHHHHHHHH, TimeUS,C19,C20,C21,C22,C23,C24,C25,C26,C27,C28,C29,C30,C31,C32
FMT, 63, 19, RSSI, Qff, TimeUS,RXRSSI,RXLQ
FMT, 64, 39, BARO, QBffcfIffB, TimeUS,I,Alt,Press,Temp,CRt,SMS,Offset,GndTemp,Health
FMT, 65, 24, BARD, QBfff, TimeUS,I,DynPrX,DynPrY,DynPrZ
FMT, 191, 50, PL, QBBfffffffIIB, TimeUS,Heal,TAcq,pX,pY,vX,vY,mX,mY,mZ,LastMeasMS,EKFOutl,Est
FMT, 66, 24, POWR, QffHHB, TimeUS,Vcc,VServo,Flags,AccFlags,Safety
FMT, 67, 27, MCU, Qffff, TimeUS,MTemp,MVolt,MVmin,MVmax
FMT, 76, 46, CMD, QHHHffffLLfB, TimeUS,CTot,CNum,CId,Prm1,Prm2,Prm3,Prm4,Lat,Lng,Alt,Frame
FMT, 77, 48, MAVC, QBBBBBHffffiifBB, TimeUS,TS,TC,SS,SC,Fr,Cmd,P1,P2,P3,P4,X,Y,Z,Res,WL
FMT, 78, 20, RAD, QBBBBBHH, TimeUS,RSSI,RemRSSI,TxBuf,Noise,RemNoise,RxErrors,Fixed
FMT, 80, 46, CAM, QBHIHLLeeeccC, TimeUS,I,Img,GPSTime,GPSWeek,Lat,Lng,Alt,RelAlt,GPSAlt,R,P,Y
FMT, 81, 46, TRIG, QBHIHLLeeeccC, TimeUS,I,Img,GPSTime,GPSWeek,Lat,Lng,Alt,RelAlt,GPSAlt,R,P,Y
FMT, 82, 48, MNT, QBfffffffff, TimeUS,I,DRoll,Roll,DPitch,Pitch,DYawB,YawB,DYawE,YawE,Dist
FMT, 110, 41, ARSP, QBffcffBBffB, TimeUS,I,Airspeed,DiffPress,Temp,RawPress,Offset,U,H,Hp,TR,Pri
FMT, 86, 40, BAT, QBfffffcfBB, TimeUS,Inst,Volt,VoltR,Curr,CurrTot,EnrgTot,Temp,Res,RemPct,H
FMT, 87, 40, BCL, QBfHHHHHHHHHHHH, TimeUS,Instance,Volt,V1,V2,V3,V4,V5,V6,V7,V8,V9,V10,V11,V12
FMT, 109, 35, MAG, QBhhhhhhhhhBI, TimeUS,I,MagX,MagY,MagZ,OfsX,OfsY,OfsZ,MOX,MOY,MOZ,Health,S
FMT, 118, 14, MODE, QMBB, TimeUS,Mode,ModeNum,Rsn
FMT, 112, 16, RFND, QBCBB, TimeUS,Instance,Dist,Stat,Orient
FMT, 113, 36, DMS, QIIIIBBBBBBBBB, TimeUS,N,Dp,RT,RS,Fa,Fmn,Fmx,Pa,Pmn,Pmx,Sa,Smn,Smx
FMT, 174, 41, BCN, QBBfffffff, TimeUS,Health,Cnt,D0,D1,D2,D3,PosX,PosY,PosZ
FMT, 175, 57, PRX, QBBfffffffffff, TimeUS,Layer,He,D0,D45,D90,D135,D180,D225,D270,D315,DUp,CAn,CDis
FMT, 176, 44, PRXR, QBffffffff, TimeUS,Layer,D0,D45,D90,D135,D180,D225,D270,D315
FMT, 179, 53, PM, QHHHIIHHIIIIII, TimeUS,LR,NLon,NL,MaxT,Mem,Load,ErrL,IntE,ErrC,SPIC,I2CC,I2CI,Ex
FMT, 178, 29, SRTL, QBHHBfff, TimeUS,Active,NumPts,MaxPts,Action,N,E,D
FMT, 170, 48, OABR, QBBHHHBfLLiLLi, TimeUS,Type,Act,DYaw,Yaw,DP,RChg,Mar,DLt,DLg,DAlt,OLt,OLg,OAlt
FMT, 171, 31, OADJ, QBBBBLLLL, TimeUS,State,Err,CurrPoint,TotPoints,DLat,DLng,OALat,OALng
FMT, 172, 37, SA, QBffffffB, TimeUS,State,DVelX,DVelY,DVelZ,MVelX,MVelY,MVelZ,Back
FMT, 173, 21, OAVG, QBBLL, TimeUS,version,point_num,Lat,Lon
FMT, 75, 45, SIM, QccCfLLffff, TimeUS,Roll,Pitch,Yaw,Alt,Lat,Lng,Q1,Q2,Q3,Q4
FMT, 83, 38, TERR, QBLLHffHHf, TimeUS,Status,Lat,Lng,Spacing,TerrH,CHeight,Pending,Loaded,ROfs
FMT, 85, 40, ESC, QBeeffcfcf, TimeUS,Instance,RPM,RawRPM,Volt,Curr,Temp,CTot,MotTemp,Err
FMT, 84, 46, CSRV, QBfffBfffffB, TimeUS,Id,Pos,Force,Speed,Pow,PosCmd,V,A,MotT,PCBT,Err
FMT, 101, 48, PIDR, QfffffffffB, TimeUS,Tar,Act,Err,P,I,D,FF,Dmod,SRate,Limit
FMT, 102, 48, PIDP, QfffffffffB, TimeUS,Tar,Act,Err,P,I,D,FF,Dmod,SRate,Limit
FMT, 103, 48, PIDY, QfffffffffB, TimeUS,Tar,Act,Err,P,I,D,FF,Dmod,SRate,Limit
FMT, 104, 48, PIDA, QfffffffffB, TimeUS,Tar,Act,Err,P,I,D,FF,Dmod,SRate,Limit
FMT, 105, 48, PIDS, QfffffffffB, TimeUS,Tar,Act,Err,P,I,D,FF,Dmod,SRate,Limit
FMT, 106, 48, PIDN, QfffffffffB, TimeUS,Tar,Act,Err,P,I,D,FF,Dmod,SRate,Limit
FMT, 107, 48, PIDE, QfffffffffB, TimeUS,Tar,Act,Err,P,I,D,FF,Dmod,SRate,Limit
FMT, 108, 56, DSTL, QBfLLeccfeffff, TimeUS,Stg,THdg,Lat,Lng,Alt,XT,Travel,L1I,Loiter,Des,P,I,D
FMT, 161, 32, ACC, QBQfff, TimeUS,I,SampleUS,AccX,AccY,AccZ
FMT, 162, 32, GYR, QBQfff, TimeUS,I,SampleUS,GyrX,GyrY,GyrZ
FMT, 163, 54, IMU, QBffffffIIfBBHH, TimeUS,I,GyrX,GyrY,GyrZ,AccX,AccY,AccZ,EG,EA,T,GH,AH,GHz,AHz
FMT, 166, 28, VIBE, QBfffI, TimeUS,IMU,VibeX,VibeY,VibeZ,Clip
FMT, 164, 31, ISBH, QHBBHHQf, TimeUS,N,type,instance,mul,smp_cnt,SampleUS,smp_rate
FMT, 165, 207, ISBD, QHHaaa, TimeUS,N,seqno,x,y,z
FMT, 129, 15, RFRH, QI, TimeUS,TF
FMT, 130, 5, RFRF, BB, FTypes,Slow
FMT, 138, 38, RFRN, IIIfIfffBBB, HLat,HLon,HAlt,E2T,AM,TX,TY,TZ,VC,EKT,Flags
FMT, 131, 4, REV2, B, Event
FMT, 132, 15, RSO2, III, Lat,Lon,Alt
FMT, 133, 11, RWA2, ff, Airspeed,uncertainty
FMT, 134, 4, REV3, B, Event
FMT, 135, 15, RSO3, III, Lat,Lon,Alt
FMT, 136, 11, RWA3, ff, Airspeed,Uncertainty
FMT, 137, 16, REY3, ffIB, yawangle,yawangleerr,timestamp_ms,type
FMT, 139, 13, RISH, HBBfBB, LR,PG,PA,LD,AC,GC
FMT, 140, 37, RISI, ffffffffBB, DVX,DVY,DVZ,DAX,DAY,DAZ,DVDT,DADT,Flags,I
FMT, 148, 5, RASH, BB, Primary,NumInst
FMT, 149, 14, RASI, fIBBB, pd,UpdateMS,H,Use,I
FMT, 141, 5, RBRH, BB, Primary,NumInst
FMT, 142, 13, RBRI, IfBB, LastUpdate,Alt,H,I
FMT, 143, 8, RRNH, hhB, GCl,MaxD,NumSensors
FMT, 144, 20, RRNI, fffHBBB, PX,PY,PZ,Dist,Orient,Status,I
FMT, 145, 5, RGPH, BB, NumInst,Primary
FMT, 146, 23, RGPI, ffffBBBB, OX,OY,OZ,Lg,Flags,Stat,NSats,I
FMT, 147, 58, RGPJ, IffffffIiiiffHB, TS,VX,VY,VZ,SA,Y,YA,YT,Lat,Lon,Alt,HA,VA,HD,I
FMT, 153, 14, RMGH, fBBBBBBB, Dec,Avail,NumInst,AutoDec,NumEna,LOE,C,FUsable
FMT, 154, 35, RMGI, IffffffBBBB, LU,OX,OY,OZ,FX,FY,FZ,UFY,H,HSF,I
FMT, 150, 33, RBCH, ffffiiiBB, PX,PY,PZ,AE,OLat,OLng,OAlt,Flags,NumInst
FMT, 151, 25, RBCI, IffffBB, LU,PX,PY,PZ,Dist,H,I
FMT, 152, 21, RVOH, fffIBB, OX,OY,OZ,Del,H,Ena
FMT, 155, 40, ROFH, ffffIffffB, FX,FY,GX,GY,Tms,PX,PY,PZ,HgtOvr,Qual
FMT, 156, 49, REPH, fffffffffIIH, PX,PY,PZ,Q1,Q2,Q3,Q4,PEr,AEr,TS,RT,D
FMT, 157, 19, RSLL, IIfI, Lat,Lng,PosAccSD,TS
FMT, 158, 25, REVH, ffffIH, VX,VY,VZ,Er,TS,D
FMT, 159, 31, RWOH, ffIffff, DA,DT,TS,PX,PY,PZ,R
FMT, 160, 53, RBOH, ffffffffIfffH, Q,DPX,DPY,DPZ,DAX,DAY,DAZ,DT,TS,OX,OY,OZ,D
FMT, 33, 37, NKF0, QBBccCCcccccccc, TimeUS,C,ID,rng,innov,SIV,TR,BPN,BPE,BPD,OFH,OFL,OFN,OFE,OFD
FMT, 34, 56, NKF1, QBccCfffffffccce, TimeUS,C,Roll,Pitch,Yaw,VN,VE,VD,dPD,PN,PE,PD,GX,GY,GZ,OH
FMT, 35, 36, NKF2, QBbccccchhhhhhB, TimeUS,C,AZbias,GSX,GSY,GSZ,VWN,VWE,MN,ME,MD,MX,MY,MZ,MI
FMT, 36, 42, NKF3, QBcccccchhhccff, TimeUS,C,IVN,IVE,IVD,IPN,IPE,IPD,IMX,IMY,IMZ,IYAW,IVT,RErr,ErSc
FMT, 37, 44, NKF4, QBcccccfffHBIHb, TimeUS,C,SV,SP,SH,SM,SVT,errRP,OFN,OFE,FS,TS,SS,GPS,PI
FMT, 38, 41, NKF5, QBBhhhcccCCfff, TimeUS,C,NI,FIX,FIY,AFI,HAGL,offset,RI,rng,Herr,eAng,eVel,ePos
FMT, 39, 28, NKQ, QBffff, TimeUS,C,Q1,Q2,Q3,Q4
FMT, 40, 48, NKT, QBIffffffff, TimeUS,C,Cnt,IMUMin,IMUMax,EKFMin,EKFMax,AngMin,AngMax,VMin,VMax
FMT, 43, 37, XKF0, QBBccCCcccccccc, TimeUS,C,ID,rng,innov,SIV,TR,BPN,BPE,BPD,OFH,OFL,OFN,OFE,OFD
FMT, 44, 56, XKF1, QBccCfffffffccce, TimeUS,C,Roll,Pitch,Yaw,VN,VE,VD,dPD,PN,PE,PD,GX,GY,GZ,OH
FMT, 45, 46, XKF2, QBccccchhhhhhfff, TimeUS,C,AX,AY,AZ,VWN,VWE,MN,ME,MD,MX,MY,MZ,IDX,IDY,IS
FMT, 46, 42, XKF3, QBcccccchhhccff, TimeUS,C,IVN,IVE,IVD,IPN,IPE,IPD,IMX,IMY,IMZ,IYAW,IVT,RErr,ErSc
FMT, 47, 44, XKF4, QBcccccfffHBIHb, TimeUS,C,SV,SP,SH,SM,SVT,errRP,OFN,OFE,FS,TS,SS,GPS,PI
FMT, 48, 41, XKF5, QBBhhhcccCCfff, TimeUS,C,NI,FIX,FIY,AFI,HAGL,offset,RI,rng,Herr,eAng,eVel,ePos
FMT, 49, 36, XKFD, QBffffff, TimeUS,C,IX,IY,IZ,IVX,IVY,IVZ
FMT, 50, 29, XKFM, QBBffff, TimeUS,C,OGNM,GLR,ALR,GDR,ADR
FMT, 51, 17, XKFS, QBBBBBB, TimeUS,C,MI,BI,GI,AI,SS
FMT, 52, 28, XKQ, QBffff, TimeUS,C,Q1,Q2,Q3,Q4
FMT, 53, 48, XKT, QBIffffffff, TimeUS,C,Cnt,IMUMin,IMUMax,EKFMin,EKFMax,AngMin,AngMax,VMin,VMax
FMT, 54, 20, XKTV, QBff, TimeUS,C,TVS,TVD
FMT, 55, 60, XKV1, QBffffffffffff, TimeUS,C,V00,V01,V02,V03,V04,V05,V06,V07,V08,V09,V10,V11
FMT, 56, 60, XKV2, QBffffffffffff, TimeUS,C,V12,V13,V14,V15,V16,V17,V18,V19,V20,V21,V22,V23
FMT, 57, 60, XKY0, QBffffffffffff, TimeUS,C,YC,YCS,Y0,Y1,Y2,Y3,Y4,W0,W1,W2,W3,W4
FMT, 58, 52, XKY1, QBffffffffff, TimeUS,C,IVN0,IVN1,IVN2,IVN3,IVN4,IVE0,IVE1,IVE2,IVE3,IVE4
FMT, 41, 60, NKY0, QBffffffffffff, TimeUS,C,YC,YCS,Y0,Y1,Y2,Y3,Y4,W0,W1,W2,W3,W4
FMT, 42, 52, NKY1, QBffffffffff, TimeUS,C,IVN0,IVN1,IVN2,IVN3,IVN4,IVE0,IVE1,IVE2,IVE3,IVE4
FMT, 68, 45, AHR2, QccCfLLffff, TimeUS,Roll,Pitch,Yaw,Alt,Lat,Lng,Q1,Q2,Q3,Q4
FMT, 69, 19, AOA, Qff, TimeUS,AOA,SSA
FMT, 70, 28, ATT, QccccCCCCB, TimeUS,DesRoll,Roll,DesPitch,Pitch,DesYaw,Yaw,ErrRP,ErrYaw,AEKF
FMT, 71, 24, ORGN, QBLLe, TimeUS,Type,Lat,Lng,Alt
FMT, 72, 31, POS, QLLfff, TimeUS,Lat,Lng,Alt,RelHomeAlt,RelOriginAlt
FMT, 73, 63, RATE, Qfffffffffffff, TimeUS,RDes,R,ROut,PDes,P,POut,YDes,Y,YOut,ADes,A,AOut,AOutSlew
FMT, 74, 35, ATSC, Qffffff, TimeUS,AngPScX,AngPScY,AngPScZ,PDScX,PDScY,PDScZ
FMT, 199, 51, VSTB, Qffffffffff, TimeUS,GyrX,GyrY,GyrZ,AccX,AccY,AccZ,Q1,Q2,Q3,Q4
FMT, 88, 38, MON, QIbIHHHHHII, TimeUS,Dly,Tsk,IErr,IErrCnt,IErrLn,MM,MC,SmLn,SPICnt,I2CCnt
FMT, 89, 47, WDOG, QbIHHHHHHHIBIIn, TimeUS,Tsk,IE,IEC,IEL,MvMsg,MvCmd,SmLn,FL,FT,FA,FP,ICSR,LR,TN
FMT, 111, 19, RPM, Qff, TimeUS,rpm1,rpm2
FMT, 204, 27, FNCE, QBBBLLBf, TimeUS,Tot,Seq,Type,Lat,Lng,Count,Radius
FMT, 177, 33, DSF, QIHIIII, TimeUS,Dp,Blk,Bytes,FMn,FMx,FAv
FMT, 117, 23, RALY, QBBLLh, TimeUS,Tot,Seq,Lat,Lng,Alt
FMT, 183, 23, MAV, QBHHHBHH, TimeUS,chan,txp,rxp,rxdp,flags,ss,tf
FMT, 167, 43, VISO, Qffffffff, TimeUS,dt,AngDX,AngDY,AngDZ,PosDX,PosDY,PosDZ,conf
FMT, 168, 57, VISP, QQIffffffffBB, TimeUS,RTimeUS,CTimeMS,PX,PY,PZ,Roll,Pitch,Yaw,PErr,AErr,Rst,Ign
FMT, 169, 41, VISV, QQIffffBB, TimeUS,RTimeUS,CTimeMS,VX,VY,VZ,VErr,Rst,Ign
FMT, 180, 28, OF, QBffff, TimeUS,Qual,flowX,flowY,bodyX,bodyY
FMT, 182, 21, WENC, Qfbfb, TimeUS,Dist0,Qual0,Dist1,Qual1
FMT, 185, 35, ADSB, QIiiiHHhH, TimeUS,ICAO_address,Lat,Lng,Alt,Heading,Hor_vel,Ver_vel,Squark
FMT, 181, 12, EV, QB, TimeUS,Id
FMT, 186, 18, ARM, QBIBB, TimeUS,ArmState,ArmChecks,Forced,Method
FMT, 184, 13, ERR, QBB, TimeUS,Subsys,ECode
FMT, 187, 35, WINC, QBBBBBfffHfb, TimeUS,Heal,ThEnd,Mov,Clut,Mode,DLen,Len,DRate,Tens,Vcc,Temp
FMT, 188, 43, PSCN, Qffffffff, TimeUS,TPN,PN,DVN,TVN,VN,DAN,TAN,AN
FMT, 189, 43, PSCE, Qffffffff, TimeUS,TPE,PE,DVE,TVE,VE,DAE,TAE,AE
FMT, 190, 43, PSCD, Qffffffff, TimeUS,TPD,PD,DVD,TVD,VD,DAD,TAD,AD
FMT, 196, 33, STAK, QBBHHN, TimeUS,Id,Pri,Total,Free,Name
FMT, 197, 88, FILE, NIBZ, FileName,Offset,Length,Data
FMT, 192, 78, AISR, QBBBZ, TimeUS,num,total,ID,payload
FMT, 193, 41, AIS1, QBBIBbHbLLHHBBbI, US,typ,rep,mmsi,nav,rot,sog,pos,lon,lat,cog,hed,sec,man,raim,rad
FMT, 194, 38, AIS4, QBIHBBBBBBLLBBI, US,rep,mmsi,year,mth,day,h,m,s,fix,lon,lat,epfd,raim,rad
FMT, 195, 175, AIS5, QBIBINZBHHBBBBZB, US,rep,mmsi,ver,imo,cal,nam,typ,bow,stn,prt,str,fix,dght,dst,dte
FMT, 198, 39, SCR, QNIii, TimeUS,Name,Runtime,Total_mem,Run_mem
FMT, 201, 88, VER, QBHBBBBIZH, TimeUS,BT,BST,Maj,Min,Pat,FWT,GH,FWS,APJ
FMT, 200, 32, MOTB, QfffffB, TimeUS,LiftMax,BatVolt,ThLimit,ThrAvMx,ThrOut,FailFlags
FMT, 6, 24, PTUN, QBfff, TimeUS,Param,TunVal,TunMin,TunMax
FMT, 0, 55, CTUN, Qffffffefffhh, TimeUS,ThI,ABst,ThO,ThH,DAlt,Alt,BAlt,DSAlt,SAlt,TAlt,DCRt,CRt
FMT, 1, 14, D16, QBh, TimeUS,Id,Value
FMT, 2, 14, DU16, QBH, TimeUS,Id,Value
FMT, 3, 16, D32, QBi, TimeUS,Id,Value
FMT, 4, 16, DU32, QBI, TimeUS,Id,Value
FMT, 5, 16, DFLT, QBf, TimeUS,Id,Value
FMT, 7, 27, HELI, Qffff, TimeUS,DRRPM,ERRPM,Gov,Throt
FMT, 9, 47, SIDD, Qfffffffff, TimeUS,Time,Targ,F,Gx,Gy,Gz,Ax,Ay,Az
FMT, 10, 40, SIDS, QBfffffff, TimeUS,Ax,Mag,FSt,FSp,TFin,TC,TR,TFout
FMT, 8, 49, GUIP, QBfffbffffff, TimeUS,Type,pX,pY,pZ,Terrain,vX,vY,vZ,aX,aY,aZ
FMT, 11, 44, GUIA, QBffffffff, TimeUS,Type,Roll,Pitch,Yaw,RollRt,PitchRt,YawRt,Thrust,ClimbRt
MSG, 3891684116, ArduCopter V4.5.0-dev (6e4c0713)
VER, 3891684116, 3, 65535, 4, 5, 0, 0, 1850476307, ArduCopter V4.5.0-dev (6e4c0713), 0
MSG, 3891684116, 97a1fc0002d1423b9ca3064e35fbaf5d
MSG, 3891684116, Param space used: 510/4096
MSG, 3891684116, RC Protocol: SITL
MSG, 3891684116, New mission
MSG, 3891684116, New rally
MSG, 3891684116, New fence
MSG, 3891684116, Frame: HELI
MODE, 3891684116, Guided, 4, 2
ORGN, 3891684116, 0, 37.6190012, -122.3748401, 4.99
ORGN, 3891684116, 1, 37.6190012, -122.3748401, 4.99
MSG, 3891684116, GPS 1: detected as u-blox at 230400 baud
FMT, 253, 51, SIM2, Qdddffff, TimeUS,PN,PE,PD,VN,VE,VD,As
SIM2, 3891717115, 8124301.24467714, 9845349.43766963, 579.010009765625, -0.0004868255, 0.0006935558, -9.910205E-05, 0
SIM2, 3891734114, 8124301.24467714, 9845349.43766963, 579.010009765625, -0.0004860271, 0.0006923628, -0.0001026009, 0
SIM2, 3891750114, 8124301.24467714, 9845349.43766963, 579.010009765625, -0.000485116, 0.0006909382, -0.0001025389, 0
SIM2, 3891767113, 8124301.24467714, 9845349.43766963, 579.010009765625, -0.00048413, 0.0006894704, -9.815391E-05, 0
GPS, 3891784112, 0, 6, 180539600, 2286, 10, 1.21, 37.6190008, -122.3748393, 4.99, 0, 124.9543, 0, 0, 1
GPA, 3891784112, 0, 2, 0.3, 0.3, 0.04, 0, 1, 3891650, 200, 0, 0, 0
SIM2, 3891784112, 8124301.24467714, 9845349.43766963, 579.010009765625, -0.0004817999, 0.0006862971, -0.0001004832, 0
SIM2, 3891817111, 8124301.24467714, 9845349.43766963, 579.010009765625, -0.0004806354, 0.0006847712, -9.371444E-05, 0
SIM2, 3891834110, 8124301.24467714, 9845349.43766963, 579.010009765625, -0.0004795431, 0.0006832554, -8.955552E-05, 0
SIM2, 3891851109, 8124301.24467714, 9845349.43766963, 579.010009765625, -0.0004782942, 0.0006816041, -8.935313E-05, 0
RPM, 3891867109, 0, -1
SIM2, 3891867109, 8124301.24467714, 9845349.43766963, 579.010009765625, -0.0004770723, 0.0006803049, -9.240439E-05, 0
SIM2, 3891884108, 8124301.24467714, 9845349.43766963, 579.010009765625, -0.0004740884, 0.0006775687, -0.0001033074, 0
SIM2, 3891917107, 8124301.24467714, 9845349.43766963, 579.010009765625, -0.0004727135, 0.0006761856, -0.0001053376, 0
SIM2, 3891934106, 8124301.24467714, 9845349.43766963, 579.010009765625, -0.0004713034, 0.0006749579, -0.0001029532, 0
GPS, 3891950106, 0, 6, 180539800, 2286, 10, 1.21, 37.6190008, -122.3748393, 4.99, 0, 125.0364, 0, 0, 1
GPA, 3891950106, 0, 2, 0.3, 0.3, 0.04, 0, 1, 3891850, 200, 0, 0, 0
IMU, 3891950106, 0, 0.0008125621, 8.050152E-05, 0.0008926723, 0.455583, -0.06425641, -9.799698, 0, 0, 28.5926, 1, 1, 943, 943
IMU, 3891950106, 1, 0.0007797003, 0.0001021889, 0.0008270616, 0.4562432, -0.06467504, -9.798963, 0, 0, 28.5926, 1, 1, 717, 754
FMT, 252, 59, AROT, Qffffffffffff, TimeUS,P,hserr,ColOut,FFCol,CRPM,SpdF,CmdV,p,ff,AccO,AccT,PitT
AROT, 3891950106, 0, 0, 0, 0, 0, 0, 0, 0, 0, 0, 0, 0
SIM2, 3891950106, 8124301.24467714, 9845349.43766963, 579.010009765625, -0.0004700622, 0.0006739182, -0.0001036467, 0
SIM2, 3891967105, 8124301.24467714, 9845349.43766963, 579.010009765625, -0.0004686126, 0.0006724666, -0.0001067993, 0
SIM2, 3891984104, 8124301.24467714, 9845349.43766963, 579.010009765625, -0.0004658261, 0.0006696944, -9.064327E-05, 0
SIM2, 3892017103, 8124301.24467714, 9845349.43766963, 579.010009765625, -0.0004644215, 0.0006680862, -8.793561E-05, 0
SIM2, 3892034102, 8124301.24467714, 9845349.43766963, 579.010009765625, -0.0004630786, 0.0006664072, -8.820051E-05, 0
XKTV, 3892051101, 0, 0.0001295485, 0.0001296899
XKTV, 3892051101, 1, 0.0001297303, 0.0001298716
SIM2, 3892051101, 8124301.24467714, 9845349.43766963, 579.010009765625, -0.0004619443, 0.0006648885, -9.018897E-05, 0
RPM, 3892067101, 0, -1
SIM2, 3892067101, 8124301.24467714, 9845349.43766963, 579.010009765625, -0.0004611214, 0.0006635967, -9.412567E-05, 0
SIM2, 3892084100, 8124301.24467714, 9845349.43766963, 579.010009765625, -0.0004590225, 0.0006603929, -0.0001082736, 0
GPS, 3892117099, 0, 6, 180540000, 2286, 10, 1.21, 37.6190008, -122.3748393, 4.99, 0, 124.9261, 0, 0, 1
GPA, 3892117099, 0, 2, 0.3, 0.3, 0.04, 0, 1, 3892050, 200, 0, 0, 0
SIM2, 3892117099, 8124301.24467714, 9845349.43766963, 579.010009765625, -0.0004576794, 0.0006587434, -0.0001031789, 0
SIM2, 3892134098, 8124301.24467714, 9845349.43766963, 579.010009765625, -0.0004564159, 0.0006574462, -9.928914E-05, 0
SIM2, 3892150098, 8124301.24467714, 9845349.43766963, 579.010009765625, -0.0004553085, 0.000656185, -9.821919E-05, 0
SIM2, 3892168098, 8124301.24467714, 9845349.43766963, 579.010009765625, -0.000453951, 0.000654503, -9.89977E-05, 0
SIM2, 3892184098, 8124301.24467714, 9845349.43766963, 579.010009765625, -0.0004514048, 0.0006513232, -0.0001055044, 0
SIM2, 3892217097, 8124301.24467714, 9845349.43766963, 579.010009765625, -0.0004502965, 0.00065018, -0.0001060033, 0
MAV, 3892234096, 0, 5972, 184, 0, 6, 0, 0
SIM2, 3892234096, 8124301.24467714, 9845349.43766963, 579.010009765625, -0.0004491333, 0.0006493595, -9.843975E-05, 0
SIM2, 3892251095, 8124301.24467714, 9845349.43766963, 579.010009765625, -0.0004475689, 0.0006484492, -9.531558E-05, 0
GPS, 3892266094, 0, 6, 180540200, 2286, 10, 1.21, 37.6190008, -122.3748393, 4.99, 0, 124.7034, 0, 0, 1
GPA, 3892266094, 0, 2, 0.3, 0.3, 0.04, 0, 1, 3892249, 199, 0, 0, 0
BAT, 3892266094, 0, 12.6, 0, 0, 0, 0, 0, 0, 100, 1
MAG, 3892266094, 0, -34, 199, 409, 2, -21, -21, 0, 0, 0, 1, 3892266094
MAG, 3892266094, 1, -32, 233, 413, 5, 13, -18, 0, 0, 0, 1, 3892266094
MAG, 3892266094, 2, -36, 221, 432, 1, 1, 1, 0, 0, 0, 1, 3892266094
BARO, 3892266094, 0, 0.08730221, 101265.9, 34.97, 0.06390222, 3892266, 0, 34.96869, 1
BARO, 3892266094, 1, -0.03701687, 101263.6, 34.97, 0.06390222, 3892266, 0, 34.96869, 1
CTUN, 3892266094, -2.384186E-07, 0, 0, 0.500322, 0.2570473, 0.2570473, 0.08, NaN, 0, 6.440319, 3, 3
ATT, 3892266094, 0, 0.59, 0, 2.85, 280.97, 280.98, 0, 0, 3
RATE, 3892266094, -3.593711, 0.01959914, -0.05035591, -17.15568, -0.02044997, -0.2310196, 0.04489125, 0.1096307, -0.0005695799, -87.91466, -87.91466, 0, 0
ATSC, 3892266094, 1, 1, 1, 0, 0, 0
XKF4, 3892266094, 0, 0, 0.01, 0.01, 0.02, 0, 0.01157994, 0, 0, 0, 50, 98471, 0, 0
XKF1, 3892266094, 0, 0.59, 2.85, 280.97, 0.07041984, 0.002878897, -0.03867977, -0.02036437, -0.04452754, 0.07053939, -0.2570473, 0.02, 0.02, -0.06, 4.98
XKF2, 3892266094, 0, 0, 0, -0.88, 0, 0, 225, 52, 416, 0, 0, 0, 0, 0, 0
XKF3, 3892266094, 0, 0, 0, 0, 0.09, 0.04, -0.16, 0, 0, 0, 1.93, 0, 0, 0
XKF5, 3892266094, 0, 0, 0, 0, 0, 1.32, 1.07, 0, 0, 0.5, 0.00572653, 0.003770218, 0.01399688
XKFS, 3892266094, 0, 0, 0, 0, 0, 0
XKQ, 3892266094, 0, 0.7711527, 0.01990792, 0.01592024, -0.6361398
XKV1, 3892266094, 0, 0.001338755, 1.546077E-05, 1.565199E-05, 0.002467006, 0.09548876, 0.09356727, 0.03964144, 0.5977792, 0.594274, 1.005287, 1.807536E-10, 1.657967E-10
XKV2, 3892266094, 0, 6.687328E-09, 1.237924E-05, 1.237924E-05, 1.257724E-07, 0, 0, 0, 0, 0, 0, 0, 0
XKT, 3892266094, 0, 280, 0.002500002, 0.002500002, 0.01823277, 0.01846388, 0.012999, 0.025, 0.012999, 0.025
XKF4, 3892266094, 1, 0, 0.01, 0.01, 0.02, 0, 0.01158672, 0, 0, 0, 50, 98471, 0, 0
XKF1, 3892266094, 1, 0.56, 2.85, 280.94, 0.0551287, -0.005190369, -0.03812873, -0.01975386, -0.04452754, 0.07053939, -0.2584494, 0.03, 0.01, -0.06, 4.98
XKF2, 3892266094, 1, 0, 0, -0.88, 0, 0, 225, 52, 416, 0, 0, 0, 0, 0, 0
XKF3, 3892266094, 1, 0, 0, 0, 0.07, 0.02, -0.16, 0, 0, 0, 1.9, 0, 0, 0
XKFS, 3892266094, 1, 0, 0, 0, 0, 0
XKQ, 3892266094, 1, 0.7709816, 0.01963929, 0.01604634, -0.6363522
XKT, 3892266094, 1, 280, 0.002500002, 0.002500002, 0.01823277, 0.01846388, 0.012999, 0.025, 0.012999, 0.025
AHR2, 3892266094, 0.5, 2.65, 278.61, 5.07, 37.6190008, -122.3748393, 0.7579676, 0.01842278, 0.01467648, -0.6518668
POS, 3892266094, 37.6190008, -122.3748393, 4.99, 0.2570473, 0.2570473
SIM, 3892266094, 0.37, 2.66, 279.64, 4.99, 37.6190008, -122.3748393, 0.7637618, 0.01751542, 0.01563979, -0.645071
RCIN, 3892266094, 1500, 1500, 1000, 1500, 1800, 1000, 1000, 1000, 0, 0, 0, 0, 0, 0
RCI2, 3892266094, 0, 0, 128, 1
RCOU, 3892266094, 1477, 1396, 1000, 1500, 0, 0, 0, 1000, 0, 0, 0, 0, 0, 0
RCO2, 3892266094, 0, 0, 1000, 1000
PSCN, 3892266094, 0, 0, 0.07041984, 0.07041984, 0.07041984, 0, -3.309605E-21, -4.491013E-06
PSCE, 3892266094, 0, 0, 0.002878897, 0.002878897, 0.002878897, 0, -8.056693E-22, -1.075628E-06
PSCD, 3892266094, -0.2570473, -0.2570473, -0.03867977, -0.03867977, -0.03867977, 0.8791466, 0.8791466, 0.8791466
VIBE, 3892266094, 0, 0.002533508, 0.00170769, 0.002198165, 0
VIBE, 3892266094, 1, 0.005862472, 0.003780483, 0.004918499, 0
FMT, 251, 31, CTRL, Qfffff, TimeUS,RMSRollP,RMSRollD,RMSPitchP,RMSPitchD,RMSYaw
CTRL, 3892266094, 0, 0, 0, 0, 0
HELI, 3892266094, 0, 0, 0, 0
IMU, 3892266094, 0, 0.0008562115, 1.932281E-05, 0.0008566003, 0.454789, -0.06517503, -9.800305, 0, 0, 28.60988, 1, 1, 943, 943
IMU, 3892266094, 1, 0.0009155041, -0.0002121264, 0.0007469048, 0.4541156, -0.0658992, -9.799068, 0, 0, 28.60988, 1, 1, 717, 754
AROT, 3892266094, 0, 0, 0, 0, 0, 0, 0, 0, 0, 0, 0, 0
RPM, 3892266094, 0, -1
FILE, @SYS/storage.bin, 0, 64, PA    x ? ? | ?C ~ ??  ??     ?     ?	 }
SIM2, 3892266094, 8124301.24467714, 9845349.43766963, 579.010009765625, -0.0004461811, 0.0006474989, -9.56304E-05, 0
SIM2, 3892284094, 8124301.24467714, 9845349.43766963, 579.010009765625, -0.0004435652, 0.0006445567, -0.0001025342, 0
SIM2, 3892317093, 8124301.24467714, 9845349.43766963, 579.010009765625, -0.000442452, 0.000642989, -0.0001076926, 0
SIM2, 3892334092, 8124301.24467714, 9845349.43766963, 579.010009765625, -0.0004413319, 0.0006412639, -0.0001147598, 0
SIM2, 3892350092, 8124301.24467714, 9845349.43766963, 579.010009765625, -0.0004403443, 0.0006397034, -0.0001114934, 0
SIM2, 3892368092, 8124301.24467714, 9845349.43766963, 579.010009765625, -0.0004393233, 0.0006378928, -0.000105962, 0
SIM2, 3892384092, 8124301.24467714, 9845349.43766963, 579.010009765625, -0.0004375123, 0.0006345403, -0.0001062036, 0
SIM2, 3892417091, 8124301.24467714, 9845349.43766963, 579.010009765625, -0.0004365321, 0.0006330881, -0.0001092019, 0
SIM2, 3892434090, 8124301.24467714, 9845349.43766963, 579.010009765625, -0.0004355698, 0.0006315143, -0.0001139208, 0
SIM2, 3892451089, 8124301.24467714, 9845349.43766963, 579.010009765625, -0.0004347793, 0.0006299716, -0.0001196436, 0
RPM, 3892467089, 0, -1
FILE, @SYS/storage.bin, 64, 64, ?? } ?C	 " ? " ??	 
 ?C 
 ??  ?  D     ?  ??
SIM2, 3892467089, 8124301.24467714, 9845349.43766963, 579.010009765625, -0.0004340959, 0.0006287922, -0.0001201517, 0
SIM2, 3892484088, 8124301.24467714, 9845349.43766963, 579.010009765625, -0.0004326367, 0.0006269147, -7.758933E-05, 0
SIM2, 3892517087, 8124301.24467714, 9845349.43766963, 579.010009765625, -0.0004318756, 0.0006257223, -6.36144E-05, 0
SIM2, 3892534086, 8124301.24467714, 9845349.43766963, 579.010009765625, -0.000431179, 0.0006243813, -5.395745E-05, 0
SIM2, 3892550086, 8124301.24467714, 9845349.43766963, 579.010009765625, -0.0004306851, 0.0006232025, -4.924474E-05, 0
XKTV, 3892568086, 0, 0.000123663, 0.0001237965
XKTV, 3892568086, 1, 0.0001238401, 0.0001239736
SIM2, 3892568086, 8124301.24467714, 9845349.43766963, 579.010009765625, -0.0004302649, 0.0006219147, -4.755023E-05, 0
GPS, 3892584086, 0, 6, 180540400, 2286, 10, 1.21, 37.6190008, -122.3748393, 4.99, 0, 124.6129, 0, 0, 1
GPA, 3892584086, 0, 2, 0.3, 0.3, 0.04, 0, 1, 3892450, 201, 0, 0, 0
IMU, 3892584086, 0, 0.0009389157, 2.638555E-05, 0.0008863808, 0.4551446, -0.06467965, -9.800463, 0, 0, 28.62724, 1, 1, 943, 943
IMU, 3892584086, 1, 0.001034894, -0.0001154197, 0.0008466203, 0.4544487, -0.0638504, -9.79968, 0, 0, 28.62724, 1, 1, 717, 754
AROT, 3892584086, 0, 0, 0, 0, 0, 0, 0, 0, 0, 0, 0, 0
SIM2, 3892584086, 8124301.24467714, 9845349.43766963, 579.010009765625, -0.0004292033, 0.0006184897, -5.243156E-05, 0
SIM2, 3892617085, 8124301.24467714, 9845349.43766963, 579.010009765625, -0.0004284146, 0.0006166, -5.67833E-05, 0
SIM2, 3892634084, 8124301.24467714, 9845349.43766963, 579.010009765625, -0.0004275385, 0.000614669, -6.216489E-05, 0
SIM2, 3892651083, 8124301.24467714, 9845349.43766963, 579.010009765625, -0.0004266188, 0.0006125811, -6.916937E-05, 0
RPM, 3892667083, 0, -1
FILE, @SYS/storage.bin, 128, 64, ?GD ??G? * C * ? * ? * ?  ?>;???;??[;? ??
SIM2, 3892667083, 8124301.24467714, 9845349.43766963, 579.010009765625, -0.0004258133, 0.0006107529, -7.653967E-05, 0
SIM2, 3892684082, 8124301.24467714, 9845349.43766963, 579.010009765625, -0.0004246549, 0.0006078566, -9.406902E-05, 0
DSF, 3892717081, 1, 1910, 80949, 129818, 204710, 166317
SIM2, 3892717081, 8124301.24467714, 9845349.43766963, 579.010009765625, -0.0004242926, 0.0006064014, -0.0001039481, 0
SIM2, 3892734080, 8124301.24467714, 9845349.43766963, 579.010009765625, -0.0004237493, 0.0006050433, -9.903641E-05, 0
GPS, 3892750080, 0, 6, 180540600, 2286, 10, 1.21, 37.6190008, -122.3748393, 4.99, 0, 124.7316, 0, 0, 1
GPA, 3892750080, 0, 2, 0.3, 0.3, 0.04, 0, 1, 3892650, 200, 0, 0, 0
SIM2, 3892750080, 8124301.24467714, 9845349.43766963, 579.010009765625, -0.000423255, 0.0006041127, -9.029807E-05, 0
SIM2, 3892768080, 8124301.24467714, 9845349.43766963, 579.010009765625, -0.0004226142, 0.000602996, -8.535013E-05, 0
SIM2, 3892784080, 8124301.24467714, 9845349.43766963, 579.010009765625, -0.0004213704, 0.00060051, -8.389741E-05, 0
SIM2, 3892817079, 8124301.24467714, 9845349.43766963, 579.010009765625, -0.0004207401, 0.0005991831, -8.66502E-05, 0
SIM2, 3892834078, 8124301.24467714, 9845349.43766963, 579.010009765625, -0.0004202719, 0.0005974152, -9.230262E-05, 0
SIM2, 3892851077, 8124301.24467714, 9845349.43766963, 579.010009765625, -0.0004196597, 0.0005957152, -9.893782E-05, 0
RPM, 3892867077, 0, -1
FILE, @SYS/storage.bin, 192, 64, ?A? ??<;F??;?B[;D ???A?                  ?# Y  
SIM2, 3892867077, 8124301.24467714, 9845349.43766963, 579.010009765625, -0.0004189312, 0.0005941791, -0.0001014817, 0
SIM2, 3892884076, 8124301.24467714, 9845349.43766963, 579.010009765625, -0.0004173049, 0.0005913243, -9.014043E-05, 0
GPS, 3892917075, 0, 6, 180540800, 2286, 10, 1.21, 37.6190008, -122.3748393, 4.99, 0, 125.007, 0, 0, 1
GPA, 3892917075, 0, 2, 0.3, 0.3, 0.04, 0, 1, 3892850, 200, 0, 0, 0
IMU, 3892917075, 0, 0.0008986656, 7.773335E-07, 0.0009178854, 0.455258, -0.06545085, -9.800659, 0, 0, 28.6454, 1, 1, 942, 942
IMU, 3892917075, 1, 0.0009156507, -0.0001432724, 0.000865239, 0.4525533, -0.0653773, -9.800777, 0, 0, 28.6454, 1, 1, 716, 754
AROT, 3892917075, 0, 0, 0, 0, 0, 0, 0, 0, 0, 0, 0, 0
SIM2, 3892917075, 8124301.24467714, 9845349.43766963, 579.010009765625, -0.0004163439, 0.0005897027, -8.91016E-05, 0
SIM2, 3892934074, 8124301.24467714, 9845349.43766963, 579.010009765625, -0.0004154519, 0.0005880112, -8.999356E-05, 0
SIM2, 3892950074, 8124301.24467714, 9845349.43766963, 579.010009765625, -0.0004146668, 0.0005867768, -9.267045E-05, 0
SIM2, 3892968074, 8124301.24467714, 9845349.43766963, 579.010009765625, -0.0004137483, 0.0005855252, -9.765281E-05, 0
SIM2, 3892984074, 8124301.24467714, 9845349.43766963, 579.010009765625, -0.0004122789, 0.0005832272, -0.0001060694, 0
SIM2, 3893017073, 8124301.24467714, 9845349.43766963, 579.010009765625, -0.0004112128, 0.0005818602, -9.971564E-05, 0
SIM2, 3893034072, 8124301.24467714, 9845349.43766963, 579.010009765625, -0.0004098293, 0.000580402, -9.583705E-05, 0
SIM2, 3893051071, 8124301.24467714, 9845349.43766963, 579.010009765625, -0.0004083823, 0.0005786468, -9.487248E-05, 0
GPS, 3893067071, 0, 6, 180541000, 2286, 10, 1.21, 37.6190008, -122.3748393, 4.99, 0, 125.1876, 0, 0, 1
GPA, 3893067071, 0, 2, 0.3, 0.3, 0.04, 0, 1, 3893050, 200, 0, 0, 0
BAT, 3893067071, 0, 12.6, 0, 0, 0, 0, 0, 0, 100, 1
MAG, 3893067071, 0, -34, 199, 409, 2, -21, -21, 0, 0, 0, 1, 3893067071
MAG, 3893067071, 1, -32, 233, 413, 5, 13, -18, 0, 0, 0, 1, 3893067071
MAG, 3893067071, 2, -36, 221, 432, 1, 1, 1, 0, 0, 0, 1, 3893067071
BARO, 3893067071, 0, 0.05622244, 101266.3, 34.97, 0.02130309, 3893067, 0, 34.96869, 1
BARO, 3893067071, 1, -0.1726375, 101265.1, 34.97, 0.02130309, 3893067, 0, 34.96869, 1
CTUN, 3893067071, -2.384186E-07, 0, 0, 0.500322, 0.2443493, 0.2443493, 0.05, NaN, 0, 6.440319, 1, 1
ATT, 3893067071, 0, 0.61, 0, 2.83, 280.94, 280.95, 0, 0, 3
RATE, 3893067071, -3.673387, 0.02421942, -0.05158748, -17.01582, -0.02153022, -0.2294307, 0.04548543, 0.1075898, -0.0005807517, -87.77686, -87.77686, 0, 0
ATSC, 3893067071, 1, 1, 1, 0, 0, 0
XKF4, 3893067071, 0, 0, 0.01, 0.01, 0.02, 0, 0.01155731, 0, 0, 0, 50, 98471, 0, 0
XKF1, 3893067071, 0, 0.61, 2.83, 280.94, 0.0781803, -0.006428008, -0.01454238, 0.001574883, -0.04452754, 0.07053939, -0.2443493, 0.02, 0.02, -0.05, 4.98
XKF2, 3893067071, 0, 0, 0, -0.88, 0, 0, 225, 52, 416, 0, 0, 0, 0, 0, 0
XKF3, 3893067071, 0, 0, 0, 0, 0.1, 0.03, -0.16, 0, 0, 0, 1.94, 0, 0, 0
XKF5, 3893067071, 0, 0, 0, 0, 0, 1.31, 1.07, 0, 0, 0.5, 0.005721411, 0.003577902, 0.01172127
XKFS, 3893067071, 0, 0, 0, 0, 0, 0
XKQ, 3893067071, 0, 0.7709727, 0.01987254, 0.015684, -0.6363648
XKV1, 3893067071, 0, 0.001320816, 1.542495E-05, 1.561985E-05, 0.002430887, 0.09551138, 0.09354798, 0.03963183, 0.5985885, 0.5945334, 1.005694, 1.800499E-10, 1.656712E-10
XKV2, 3893067071, 0, 6.412951E-09, 1.237924E-05, 1.237924E-05, 1.257778E-07, 0, 0, 0, 0, 0, 0, 0, 0
XKF4, 3893067071, 1, 0, 0.01, 0.01, 0.02, 0, 0.01156343, 0, 0, 0, 50, 98471, 0, 0
XKF1, 3893067071, 1, 0.58, 2.83, 280.9, 0.06354309, -0.0118529, -0.0142574, 0.001932992, -0.04452754, 0.07053939, -0.2449613, 0.03, 0.01, -0.05, 4.98
XKF2, 3893067071, 1, 0, 0, -0.88, 0, 0, 225, 52, 416, 0, 0, 0, 0, 0, 0
XKF3, 3893067071, 1, 0, 0, 0, 0.07, 0.01, -0.17, 0, 0, 0, 1.91, 0, 0, 0
XKFS, 3893067071, 1, 0, 0, 0, 0, 0
XKQ, 3893067071, 1, 0.7707945, 0.01966751, 0.01579926, -0.6365842
AHR2, 3893067071, 0.51, 2.63, 278.59, 5.07, 37.6190008, -122.3748393, 0.7578225, 0.01839567, 0.01452885, -0.6520395
POS, 3893067071, 37.6190008, -122.3748393, 4.99, 0.2443493, 0.2443493
SIM, 3893067071, 0.37, 2.66, 279.64, 4.99, 37.6190008, -122.3748393, 0.7637618, 0.01751542, 0.01563979, -0.645071
RCIN, 3893067071, 1500, 1500, 1000, 1500, 1800, 1000, 1000, 1000, 0, 0, 0, 0, 0, 0
RCI2, 3893067071, 0, 0, 128, 1
RCOU, 3893067071, 1476, 1396, 1000, 1500, 0, 0, 0, 1000, 0, 0, 0, 0, 0, 0
RCO2, 3893067071, 0, 0, 1000, 1000
PSCN, 3893067071, 0, 0, 0.0781803, 0.0781803, 0.0781803, 0, -3.036134E-23, -4.491627E-06
PSCE, 3893067071, 0, 0, -0.006428008, -0.006428008, -0.006428008, 0, -7.390971E-24, -1.073054E-06
PSCD, 3893067071, -0.2443493, -0.2443493, -0.01454238, -0.01454238, -0.01454238, 0.8777685, 0.8777685, 0.8777685
VIBE, 3893067071, 0, 0.00179475, 0.001774514, 0.002937971, 0
VIBE, 3893067071, 1, 0.00418863, 0.003509901, 0.004547317, 0
CTRL, 3893067071, 0, 0, 0, 0, 0
HELI, 3893067071, 0, 0, 0, 0
RPM, 3893067071, 0, -1
FILE, @SYS/storage.bin, 256, 64, 3 v??Z 
    [   Z?
 ?        f??  @@f??  ?@f
SIM2, 3893067071, 8124301.24467714, 9845349.43766963, 579.010009765625, -0.0004072425, 0.000577305, -9.582946E-05, 0
XKTV, 3893084070, 0, 0.000133949, 0.0001340942
XKTV, 3893084070, 1, 0.0001340987, 0.0001342437
SIM2, 3893084070, 8124301.24467714, 9845349.43766963, 579.010009765625, -0.0004052049, 0.0005753472, -0.0001020301, 0
SIM2, 3893117069, 8124301.24467714, 9845349.43766963, 579.010009765625, -0.0004038708, 0.0005744789, -0.0001080286, 0
SIM2, 3893134068, 8124301.24467714, 9845349.43766963, 579.010009765625, -0.0004024112, 0.0005735496, -0.0001070596, 0
SIM2, 3893150068, 8124301.24467714, 9845349.43766963, 579.010009765625, -0.0004011264, 0.0005724852, -0.0001060934, 0
SIM2, 3893168068, 8124301.24467714, 9845349.43766963, 579.010009765625, -0.0003998392, 0.0005712922, -0.0001068255, 0
SIM2, 3893184068, 8124301.24467714, 9845349.43766963, 579.010009765625, -0.000397126, 0.0005691521, -0.000113021, 0
SIM2, 3893217067, 8124301.24467714, 9845349.43766963, 579.010009765625, -0.0003959325, 0.000567968, -0.0001026316, 0
IMU, 3893234066, 0, 0.0009463939, -2.238351E-05, 0.0009125805, 0.4554495, -0.063868, -9.800776, 0, 0, 28.66268, 1, 1, 942, 942
IMU, 3893234066, 1, 0.001088957, 0.0002275004, 0.0009100016, 0.458104, -0.06464497, -9.801203, 0, 0, 28.66268, 1, 1, 716, 754
AROT, 3893234066, 0, 0, 0, 0, 0, 0, 0, 0, 0, 0, 0, 0
SIM2, 3893234066, 8124301.24467714, 9845349.43766963, 579.010009765625, -0.0003946986, 0.0005664855, -9.619625E-05, 0
MAV, 3893251065, 0, 6073, 195, 0, 6, 0, 0
SIM2, 3893251065, 8124301.24467714, 9845349.43766963, 579.010009765625, -0.0003936217, 0.0005651169, -9.340439E-05, 0
RPM, 3893267065, 0, -1
FILE, @SYS/storage.bin, 320, 64, ??  ?@f??   ?f?    ?f??   ?f?    ?g??  ??g? 
??<g?A ???=f
SIM2, 3893267065, 8124301.24467714, 9845349.43766963, 579.010009765625, -0.0003927475, 0.0005638469, -9.274571E-05, 0
SIM2, 3893284064, 8124301.24467714, 9845349.43766963, 579.010009765625, -0.0003903823, 0.0005608321, -9.794951E-05, 0
SIM2, 3893317063, 8124301.24467714, 9845349.43766963, 579.010009765625, -0.0003890791, 0.0005591476, -0.000102535, 0
SIM2, 3893334062, 8124301.24467714, 9845349.43766963, 579.010009765625, -0.0003878997, 0.0005574577, -0.0001074855, 0
SIM2, 3893350062, 8124301.24467714, 9845349.43766963, 579.010009765625, -0.000386966, 0.0005561225, -0.0001128678, 0
SIM2, 3893368062, 8124301.24467714, 9845349.43766963, 579.010009765625, -0.00038604, 0.0005548521, -0.0001111713, 0
GPS, 3893384062, 0, 6, 180541200, 2286, 10, 1.21, 37.6190008, -122.3748393, 4.99, 0, 125.038, 0, 0, 1
GPA, 3893384062, 0, 2, 0.3, 0.3, 0.04, 0, 1, 3893250, 200, 0, 0, 0
SIM2, 3893384062, 8124301.24467714, 9845349.43766963, 579.010009765625, -0.0003841949, 0.0005523936, -0.0001096612, 0
SIM2, 3893417061, 8124301.24467714, 9845349.43766963, 579.010009765625, -0.0003832162, 0.0005512423, -0.0001122352, 0
SIM2, 3893434060, 8124301.24467714, 9845349.43766963, 579.010009765625, -0.0003821986, 0.0005499999, -0.0001161036, 0
SIM2, 3893451059, 8124301.24467714, 9845349.43766963, 579.010009765625, -0.0003812547, 0.000548768, -0.0001126666, 0
RPM, 3893467059, 0, -1
FILE, @SYS/storage.bin, 384, 64, ?   ?f! ???>D?D4f?     ?f?  ???=f?   ?AgD?
SIM2, 3893467059, 8124301.24467714, 9845349.43766963, 579.010009765625, -0.0003803347, 0.0005476695, -0.0001098457, 0
SIM2, 3893484058, 8124301.24467714, 9845349.43766963, 579.010009765625, -0.0003789405, 0.0005453776, -0.0001122061, 0
SIM2, 3893517057, 8124301.24467714, 9845349.43766963, 579.010009765625, -0.0003780061, 0.0005440367, -0.0001076431, 0
SIM2, 3893534056, 8124301.24467714, 9845349.43766963, 579.010009765625, -0.0003772645, 0.0005428592, -0.0001026049, 0
GPS, 3893550056, 0, 6, 180541400, 2286, 10, 1.21, 37.6190008, -122.3748393, 4.99, 0, 124.8245, 0, 0, 1
GPA, 3893550056, 0, 2, 0.3, 0.3, 0.04, 0, 1, 3893450, 200, 0, 0, 0
IMU, 3893550056, 0, 0.0009668943, -4.461258E-05, 0.0008818223, 0.4556072, -0.06482007, -9.799128, 0, 0, 28.67988, 1, 1, 942, 942
IMU, 3893550056, 1, 0.001044772, -0.0001080454, 0.0009194808, 0.4555462, -0.06545838, -9.800692, 0, 0, 28.67988, 1, 1, 716, 754
AROT, 3893550056, 0, 0, 0, 0, 0, 0, 0, 0, 0, 0, 0, 0
SIM2, 3893550056, 8124301.24467714, 9845349.43766963, 579.010009765625, -0.0003764852, 0.0005416814, -0.0001009612, 0
SIM2, 3893568056, 8124301.24467714, 9845349.43766963, 579.010009765625, -0.0003753049, 0.0005399007, -0.0001018651, 0
SIM2, 3893584056, 8124301.24467714, 9845349.43766963, 579.010009765625, -0.0003730674, 0.0005365771, -0.0001099629, 0
XKTV, 3893617055, 0, 0.0001277987, 0.000127936
XKTV, 3893617055, 1, 0.000128018, 0.0001281554
SIM2, 3893617055, 8124301.24467714, 9845349.43766963, 579.010009765625, -0.0003720878, 0.0005352584, -0.0001148912, 0
SIM2, 3893634054, 8124301.24467714, 9845349.43766963, 579.010009765625, -0.0003713508, 0.0005340608, -0.000120627, 0
SIM2, 3893651053, 8124301.24467714, 9845349.43766963, 579.010009765625, -0.0003707097, 0.0005329233, -0.0001195507, 0
RPM, 3893667053, 0, -1
FILE, @SYS/storage.bin, 448, 64, ?g! ??L=g???L>g??  ??Z? ?? f ???=
????A
??	n????
SIM2, 3893667053, 8124301.24467714, 9845349.43766963, 579.010009765625, -0.0003700472, 0.0005320695, -0.0001171665, 0
SIM2, 3893684052, 8124301.24467714, 9845349.43766963, 579.010009765625, -0.0003684527, 0.0005296723, -0.0001190634, 0
GPS, 3893717051, 0, 6, 180541600, 2286, 10, 1.21, 37.6190008, -122.3748393, 4.99, 0, 124.806, 0, 0, 1
GPA, 3893717051, 0, 2, 0.3, 0.3, 0.04, 0, 1, 3893650, 200, 0, 0, 0
SIM2, 3893717051, 8124301.24467714, 9845349.43766963, 579.010009765625, -0.0003677715, 0.000528459, -0.0001220179, 0
DSF, 3893734050, 1, 126, 5790, 200643, 204722, 202704
SIM2, 3893734050, 8124301.24467714, 9845349.43766963, 579.010009765625, -0.0003671666, 0.0005273279, -0.0001192097, 0
SIM2, 3893750050, 8124301.24467714, 9845349.43766963, 579.010009765625, -0.0003666033, 0.0005261062, -0.0001160143, 0
SIM2, 3893768050, 8124301.24467714, 9845349.43766963, 579.010009765625, -0.0003658846, 0.0005246764, -0.0001156558, 0
SIM2, 3893784050, 8124301.24467714, 9845349.43766963, 579.010009765625, -0.0003648767, 0.0005217902, -0.0001189302, 0
SIM2, 3893817049, 8124301.24467714, 9845349.43766963, 579.010009765625, -0.0003646511, 0.0005206052, -0.0001128339, 0
SIM2, 3893834048, 8124301.24467714, 9845349.43766963, 579.010009765625, -0.0003644432, 0.0005193905, -0.0001100247, 0
SIM2, 3893851047, 8124301.24467714, 9845349.43766963, 579.010009765625, -0.0003637843, 0.0005176852, -0.0001107268, 0
GPS, 3893867047, 0, 6, 180541800, 2286, 10, 1.21, 37.6190008, -122.3748393, 4.99, 0, 124.9579, 0, 0, 1
GPA, 3893867047, 0, 2, 0.3, 0.3, 0.04, 0, 1, 3893850, 200, 0, 0, 0
BAT, 3893867047, 0, 12.6, 0, 0, 0, 0, 0, 0, 100, 1
MAG, 3893867047, 0, -34, 199, 409, 2, -21, -21, 0, 0, 0, 1, 3893867047
MAG, 3893867047, 1, -32, 233, 413, 5, 13, -18, 0, 0, 0, 1, 3893867047
MAG, 3893867047, 2, -36, 221, 432, 1, 1, 1, 0, 0, 0, 1, 3893867047
BARO, 3893867047, 0, 0.3387656, 101263.1, 34.97, -0.03579358, 3893867, 0, 34.96869, 1
BARO, 3893867047, 1, -0.1330814, 101264.7, 34.97, -0.03579358, 3893867, 0, 34.96869, 1
CTUN, 3893867047, -2.384186E-07, 0, 0, 0.500322, 0.210165, 0.210165, 0.33, NaN, 0, 6.440319, -1, -1
ATT, 3893867047, 0, 0.62, 0, 2.81, 280.9, 280.91, 0, 0, 3
RATE, 3893867047, -3.756339, 0.02659284, -0.05270467, -16.8808, -0.01982357, -0.2279992, 0.04620253, 0.1076943, -0.0008165566, -88.00755, -88.00755, 0, 0
ATSC, 3893867047, 1, 1, 1, 0, 0, 0
XKF4, 3893867047, 0, 0, 0.01, 0.01, 0.02, 0, 0.0115349, 0, 0, 0, 50, 98471, 0, 0
XKF1, 3893867047, 0, 0.62, 2.81, 280.9, 0.08544768, -0.01631111, 0.0101386, 0.02541078, -0.04452754, 0.07053939, -0.210165, 0.03, 0.02, -0.05, 4.98
XKF2, 3893867047, 0, 0, 0, -0.88, 0, 0, 225, 52, 416, 0, 0, 0, 0, 0, 0
XKF3, 3893867047, 0, 0, 0, 0, 0.11, 0.01, -0.19, 0, 0, 0, 1.94, 0, 0, 0
XKF5, 3893867047, 0, 0, 0, 0, 0, 1.29, 1.07, 0, 0, 0.5, 0.00572578, 0.003512672, 0.01112224
XKFS, 3893867047, 0, 0, 0, 0, 0, 0
XKQ, 3893867047, 0, 0.7707828, 0.01984502, 0.01544955, -0.6366014
XKV1, 3893867047, 0, 0.001303362, 1.538946E-05, 1.558595E-05, 0.002395616, 0.09544715, 0.0935147, 0.03962025, 0.599032, 0.5946157, 1.005941, 1.794155E-10, 1.655509E-10
XKV2, 3893867047, 0, 6.153832E-09, 1.237924E-05, 1.237924E-05, 1.257752E-07, 0, 0, 0, 0, 0, 0, 0, 0
XKF4, 3893867047, 1, 0, 0.01, 0.01, 0.02, 0, 0.01154431, 0, 0, 0, 50, 98471, 0, 0
XKF1, 3893867047, 1, 0.6, 2.81, 280.87, 0.07281014, -0.020991, 0.009312561, 0.02456377, -0.04452754, 0.07053939, -0.2108928, 0.03, 0.01, -0.05, 4.98
XKF2, 3893867047, 1, 0, 0, -0.88, 0, 0, 225, 52, 416, 0, 0, 0, 0, 0, 0
XKF3, 3893867047, 1, 0, 0, 0, 0.08, 0, -0.19, 0, 0, 0, 1.91, 0, 0, 0
XKFS, 3893867047, 1, 0, 0, 0, 0, 0
XKQ, 3893867047, 1, 0.7706286, 0.01970269, 0.01554686, -0.6367902
AHR2, 3893867047, 0.51, 2.62, 278.56, 5.04, 37.6190008, -122.3748393, 0.7576792, 0.0183843, 0.0144098, -0.6522091
POS, 3893867047, 37.6190008, -122.3748393, 4.99, 0.210165, 0.210165
SIM, 3893867047, 0.37, 2.66, 279.64, 4.99, 37.6190008, -122.3748393, 0.7637618, 0.01751542, 0.01563979, -0.645071
RCIN, 3893867047, 1500, 1500, 1000, 1500, 1800, 1000, 1000, 1000, 0, 0, 0, 0, 0, 0
RCI2, 3893867047, 0, 0, 128, 1
RCOU, 3893867047, 1476, 1397, 1000, 1500, 0, 0, 0, 1000, 0, 0, 0, 0, 0, 0
RCO2, 3893867047, 0, 0, 1000, 1000
PSCN, 3893867047, 0, 0, 0.08544767, 0.08544767, 0.08544767, 0, -2.801011E-25, -4.492273E-06
PSCE, 3893867047, 0, 0, -0.01631111, -0.01631111, -0.01631111, 0, -6.818601E-26, -1.070346E-06
PSCD, 3893867047, -0.210165, -0.210165, 0.0101386, 0.0101386, 0.0101386, 0.8800755, 0.8800755, 0.8800755
VIBE, 3893867047, 0, 0.001875221, 0.002073071, 0.002937446, 0
VIBE, 3893867047, 1, 0.003842181, 0.004245154, 0.004768166, 0
CTRL, 3893867047, 0, 0, 0, 0, 0
HELI, 3893867047, 0, 0, 0, 0
IMU, 3893867047, 0, 0.0009936814, 3.085373E-05, 0.0009437301, 0.4554225, -0.06631899, -9.797922, 0, 0, 28.69711, 1, 1, 941, 941
IMU, 3893867047, 1, 0.001265137, 3.068159E-05, 0.0009100545, 0.4569341, -0.06424011, -9.798731, 0, 0, 28.69711, 1, 1, 715, 753
AROT, 3893867047, 0, 0, 0, 0, 0, 0, 0, 0, 0, 0, 0, 0
RPM, 3893867047, 0, -1
FILE, @SYS/storage.bin, 512, 64, ?
SIM2, 3893867047, 8124301.24467714, 9845349.43766963, 579.010009765625, -0.0003630013, 0.0005159294, -0.0001134481, 0
SIM2, 3893884046, 8124301.24467714, 9845349.43766963, 579.010009765625, -0.000361845, 0.0005127026, -9.85584E-05, 0
SIM2, 3893917045, 8124301.24467714, 9845349.43766963, 579.010009765625, -0.0003615619, 0.0005111005, -9.373965E-05, 0
SIM2, 3893934044, 8124301.24467714, 9845349.43766963, 579.010009765625, -0.0003613887, 0.0005097897, -9.165739E-05, 0
SIM2, 3893950044, 8124301.23354525, 9845349.43766963, 579.010009765625, -0.0003611969, 0.0005085514, -9.217874E-05, 0
SIM2, 3893968044, 8124301.23354525, 9845349.43766963, 579.010009765625, -0.0003607135, 0.0005072668, -9.499879E-05, 0
SIM2, 3893984044, 8124301.23354525, 9845349.43766963, 579.010009765625, -0.000359815, 0.0005050665, -0.0001022917, 0
SIM2, 3894017043, 8124301.23354525, 9845349.43766963, 579.010009765625, -0.0003594418, 0.0005038436, -0.0001079413, 0
SIM2, 3894034042, 8124301.23354525, 9845349.43766963, 579.010009765625, -0.0003586706, 0.0005024418, -0.0001090353, 0
SIM2, 3894051041, 8124301.23354525, 9845349.43766963, 579.010009765625, -0.000357662, 0.0005011135, -0.0001052282, 0
RPM, 3894067041, 0, -1
FILE, @SYS/storage.bin, 576, 64, 
SIM2, 3894067041, 8124301.23354525, 9845349.43766963, 579.010009765625, -0.0003566792, 0.0004999022, -0.0001042056, 0
SIM2, 3894084040, 8124301.23354525, 9845349.43766963, 579.010009765625, -0.0003547756, 0.0004977331, -0.0001012201, 0
SIM2, 3894117039, 8124301.23354525, 9845349.43766963, 579.010009765625, -0.0003537863, 0.0004963711, -0.0001005998, 0
XKTV, 3894134038, 0, 0.0001218759, 0.0001220057
XKTV, 3894134038, 1, 0.0001220968, 0.0001222272
SIM2, 3894134038, 8124301.23354525, 9845349.43766963, 579.010009765625, -0.0003528954, 0.0004950014, -0.000101587, 0
SIM2, 3894150038, 8124301.23354525, 9845349.43766963, 579.010009765625, -0.0003520222, 0.0004937546, -0.000102204, 0
SIM2, 3894168038, 8124301.23354525, 9845349.43766963, 579.010009765625, -0.0003508409, 0.0004926296, -9.623163E-05, 0
GPS, 3894187037, 0, 6, 180542000, 2286, 10, 1.21, 37.6190008, -122.3748393, 4.99, 0, 125.3036, 0, 0, 1
GPA, 3894187037, 0, 2, 0.3, 0.3, 0.04, 0, 1, 3894050, 200, 0, 0, 0
IMU, 3894187037, 0, 0.0009442754, 3.216718E-05, 0.0009697275, 0.4547997, -0.06626306, -9.799145, 0, 0, 28.71449, 1, 1, 941, 941
IMU, 3894187037, 1, 0.00094405, -3.925583E-05, 0.00123826, 0.4581885, -0.06515884, -9.801256, 0, 0, 28.71449, 1, 1, 715, 753
AROT, 3894187037, 0, 0, 0, 0, 0, 0, 0, 0, 0, 0, 0, 0
SIM2, 3894187037, 8124301.23354525, 9845349.43766963, 579.010009765625, -0.0003488123, 0.0004912453, -9.576217E-05, 0
SIM2, 3894217037, 8124301.23354525, 9845349.43766963, 579.010009765625, -0.0003481559, 0.0004910072, -9.826291E-05, 0
SIM2, 3894234036, 8124301.23354525, 9845349.43766963, 579.010009765625, -0.0003476773, 0.0004907706, -0.0001013867, 0
SIM2, 3894251035, 8124301.23354525, 9845349.43766963, 579.010009765625, -0.000347167, 0.000490193, -0.0001062757, 0
MAV, 3894267035, 0, 6174, 205, 0, 6, 0, 0
RPM, 3894267035, 0, -1
FILE, @SYS/storage.bin, 640, 64, 
SIM2, 3894267035, 8124301.23354525, 9845349.43766963, 579.010009765625, -0.0003465058, 0.0004891485, -0.0001072779, 0
SIM2, 3894284034, 8124301.23354525, 9845349.43766963, 579.010009765625, -0.0003449283, 0.0004865977, -0.0001022787, 0
SIM2, 3894317033, 8124301.23354525, 9845349.43766963, 579.010009765625, -0.0003440883, 0.0004849875, -0.0001025414, 0
SIM2, 3894334032, 8124301.23354525, 9845349.43766963, 579.010009765625, -0.0003431175, 0.0004833205, -0.0001043769, 0
GPS, 3894350032, 0, 6, 180542200, 2286, 10, 1.21, 37.6190007, -122.3748393, 4.99, 0, 125.4132, 0, 0, 1
GPA, 3894350032, 0, 2, 0.3, 0.3, 0.04, 0, 1, 3894250, 200, 0, 0, 0
SIM2, 3894350032, 8124301.23354525, 9845349.43766963, 579.010009765625, -0.0003423012, 0.0004819378, -0.0001070039, 0
SIM2, 3894368032, 8124301.23354525, 9845349.43766963, 579.010009765625, -0.0003412637, 0.0004806565, -0.0001107576, 0
SIM2, 3894384032, 8124301.23354525, 9845349.43766963, 579.010009765625, -0.000339364, 0.000478647, -9.847396E-05, 0
SIM2, 3894417031, 8124301.23354525, 9845349.43766963, 579.010009765625, -0.0003384746, 0.0004777191, -9.314365E-05, 0
SIM2, 3894434030, 8124301.23354525, 9845349.43766963, 579.010009765625, -0.000337527, 0.0004766707, -9.05714E-05, 0
SIM2, 3894451029, 8124301.23354525, 9845349.43766963, 579.010009765625, -0.0003366529, 0.0004756465, -9.107387E-05, 0
RPM, 3894467029, 0, -1
FILE, @SYS/storage.bin, 704, 64, 
SIM2, 3894467029, 8124301.23354525, 9845349.43766963, 579.010009765625, -0.0003358004, 0.0004746199, -9.340118E-05, 0
SIM2, 3894484028, 8124301.23354525, 9845349.43766963, 579.010009765625, -0.0003335326, 0.0004717829, -0.000102238, 0
GPS, 3894517027, 0, 6, 180542400, 2286, 10, 1.21, 37.6190007, -122.3748393, 4.99, 0, 125.2987, 0, 0, 1
GPA, 3894517027, 0, 2, 0.3, 0.3, 0.04, 0, 1, 3894450, 200, 0, 0, 0
IMU, 3894517027, 0, 0.0009663872, -1.154675E-05, 0.0009067511, 0.4553346, -0.06590402, -9.799526, 0, 0, 28.7324, 1, 1, 941, 941
IMU, 3894517027, 1, 0.0009727929, -0.0001238178, 0.0007721877, 0.4533024, -0.06841116, -9.801359, 0, 0, 28.7324, 1, 1, 715, 753
AROT, 3894517027, 0, 0, 0, 0, 0, 0, 0, 0, 0, 0, 0, 0
SIM2, 3894517027, 8124301.23354525, 9845349.43766963, 579.010009765625, -0.0003323881, 0.0004705504, -0.0001068469, 0
SIM2, 3894534026, 8124301.23354525, 9845349.43766963, 579.010009765625, -0.0003313268, 0.0004695939, -0.0001116215, 0
SIM2, 3894550026, 8124301.23354525, 9845349.43766963, 579.010009765625, -0.0003306188, 0.0004686673, -0.0001156437, 0
SIM2, 3894568026, 8124301.23354525, 9845349.43766963, 579.010009765625, -0.0003297981, 0.0004674207, -0.0001116055, 0
SIM2, 3894584026, 8124301.23354525, 9845349.43766963, 579.010009765625, -0.0003278449, 0.0004649449, -0.0001113919, 0
SIM2, 3894617025, 8124301.23354525, 9845349.43766963, 579.010009765625, -0.0003268312, 0.0004638446, -0.000113924, 0
SIM2, 3894634024, 8124301.23354525, 9845349.43766963, 579.010009765625, -0.0003256884, 0.0004628264, -0.0001170996, 0
XKTV, 3894651023, 0, 0.0001321062, 0.0001322474
XKTV, 3894651023, 1, 0.0001323075, 0.0001324485
SIM2, 3894651023, 8124301.23354525, 9845349.43766963, 579.010009765625, -0.0003246303, 0.0004616949, -0.0001110268, 0
GPS, 3894667023, 0, 6, 180542600, 2286, 10, 1.21, 37.6190007, -122.3748393, 4.99, 0, 125.2025, 0, 0, 1
GPA, 3894667023, 0, 2, 0.3, 0.3, 0.04, 0, 1, 3894650, 200, 0, 0, 0
BAT, 3894667023, 0, 12.6, 0, 0, 0, 0, 0, 0, 100, 1
MAG, 3894667023, 0, -34, 199, 409, 2, -21, -21, 0, 0, 0, 1, 3894667023
MAG, 3894667023, 1, -32, 233, 413, 5, 13, -18, 0, 0, 0, 1, 3894667023
MAG, 3894667023, 2, -36, 221, 432, 1, 1, 1, 0, 0, 0, 1, 3894667023
BARO, 3894667023, 0, 0.0646987, 101266.1, 34.97, -0.007174052, 3894667, 0, 34.96869, 1
BARO, 3894667023, 1, -0.1161289, 101264.5, 34.97, -0.007174052, 3894667, 0, 34.96869, 1
CTUN, 3894667023, -2.384186E-07, 0, 0, 0.500322, 0.2175611, 0.2175611, 0.06, NaN, 0, 6.440316, -5, -5
ATT, 3894667023, 0, 0.63, 0, 2.79, 280.87, 280.88, 0, 0, 3
RATE, 3894667023, -3.821323, 0.02282069, -0.05356963, -16.7568, -0.02096267, -0.2260026, 0.04663279, 0.1032002, -0.0006412994, -87.65774, -87.65774, 0, 0
ATSC, 3894667023, 1, 1, 1, 0, 0, 0
XKF4, 3894667023, 0, 0, 0.01, 0.01, 0.02, 0, 0.0115164, 0, 0, 0, 50, 98471, 0, 0
XKF1, 3894667023, 0, 0.63, 2.79, 280.87, 0.09270404, -0.02638141, 0.05452721, 0.04973183, -0.05565942, 0.07053939, -0.2175611, 0.03, 0.02, -0.05, 4.98
XKF2, 3894667023, 0, 0, 0, -0.88, 0, 0, 225, 52, 416, 0, 0, 0, 0, 0, 0
XKF3, 3894667023, 0, 0, 0, 0, 0.12, 0, 0.11, 0, 0, 0, 1.94, 0, 0, 0
XKF5, 3894667023, 0, 0, 0, 0, 0, 1.3, 1.07, 0, 0, 0.5, 0.005738126, 0.003558855, 0.01189812
XKFS, 3894667023, 0, 0, 0, 0, 0, 0
XKQ, 3894667023, 0, 0.7705806, 0.01980807, 0.01524403, -0.6368523
XKV1, 3894667023, 0, 0.00128628, 1.536652E-05, 1.555675E-05, 0.002361229, 0.09532765, 0.09349488, 0.03962144, 0.6003379, 0.5957282, 1.006995, 1.789199E-10, 1.655103E-10
XKV2, 3894667023, 0, 5.909079E-09, 1.237924E-05, 1.237924E-05, 1.258011E-07, 0, 0, 0, 0, 0, 0, 0, 0
XKF4, 3894667023, 1, 0, 0.01, 0.01, 0.02, 0, 0.01152524, 0, 0, 0, 50, 98471, 0, 0
XKF1, 3894667023, 1, 0.61, 2.78, 280.84, 0.08141409, -0.02919248, 0.0524192, 0.04761945, -0.05565942, 0.07053939, -0.2191257, 0.03, 0.01, -0.05, 4.98
XKF2, 3894667023, 1, 0, 0, -0.88, 0, 0, 225, 52, 416, 0, 0, 0, 0, 0, 0
XKF3, 3894667023, 1, 0, 0, 0, 0.09, 0, 0.11, 0, 0, 0, 1.91, 0, 0, 0
XKFS, 3894667023, 1, 0, 0, 0, 0, 0
XKQ, 3894667023, 1, 0.7704656, 0.01966212, 0.01530573, -0.6369945
AHR2, 3894667023, 0.52, 2.61, 278.54, 5.32, 37.6190007, -122.3748393, 0.7575373, 0.01835779, 0.01429243, -0.6523772
POS, 3894667023, 37.6190007, -122.3748393, 4.99, 0.2175611, 0.2175611
SIM, 3894667023, 0.37, 2.66, 279.64, 4.99, 37.6190007, -122.3748393, 0.7637618, 0.01751542, 0.01563979, -0.645071
RCIN, 3894667023, 1500, 1500, 1000, 1500, 1800, 1000, 1000, 1000, 0, 0, 0, 0, 0, 0
RCI2, 3894667023, 0, 0, 128, 1
RCOU, 3894667023, 1475, 1398, 1000, 1500, 0, 0, 0, 1000, 0, 0, 0, 0, 0, 0
RCO2, 3894667023, 0, 0, 1000, 1000
PSCN, 3894667023, 0, 0, 0.09270404, 0.09270404, 0.09270404, 0, -2.580907E-27, -4.492959E-06
PSCE, 3894667023, 0, 0, -0.02638141, -0.02638141, -0.02638141, 0, -6.28279E-28, -1.067462E-06
PSCD, 3894667023, -0.2175611, -0.2175611, 0.05452721, 0.05452721, 0.05452721, 0.8765774, 0.8765774, 0.8765774
VIBE, 3894667023, 0, 0.001655545, 0.002159629, 0.0019216, 0
VIBE, 3894667023, 1, 0.003865126, 0.00317926, 0.003562953, 0
CTRL, 3894667023, 0, 0, 0, 0, 0
HELI, 3894667023, 0, 0, 0, 0
RPM, 3894667023, 0, -1
FILE, @SYS/storage.bin, 768, 64, 
SIM2, 3894667023, 8124301.23354525, 9845349.43766963, 579.010009765625, -0.0003238921, 0.0004608231, -0.000107426, 0
SIM2, 3894684022, 8124301.23354525, 9845349.43766963, 579.010009765625, -0.0003223645, 0.0004586353, -0.0001080268, 0
SIM2, 3894717021, 8124301.23354525, 9845349.43766963, 579.010009765625, -0.0003214445, 0.0004574092, -0.0001102924, 0
SIM2, 3894734020, 8124301.23354525, 9845349.43766963, 579.010009765625, -0.0003205998, 0.0004562766, -0.0001077925, 0
DSF, 3894750020, 1, 163, 7210, 200559, 204604, 202487
SIM2, 3894750020, 8124301.23354525, 9845349.43766963, 579.010009765625, -0.0003199365, 0.0004551908, -0.0001027705, 0
SIM2, 3894768020, 8124301.23354525, 9845349.43766963, 579.010009765625, -0.0003191021, 0.0004539072, -0.0001001654, 0
SIM2, 3894784020, 8124301.23354525, 9845349.43766963, 579.010009765625, -0.0003173761, 0.0004514696, -0.0001010019, 0
SIM2, 3894817019, 8124301.23354525, 9845349.43766963, 579.010009765625, -0.0003163608, 0.0004502537, -0.0001037602, 0
IMU, 3894834018, 0, 0.0009235989, 1.997983E-05, 0.0009519921, 0.4554703, -0.065885, -9.799315, 0, 0, 28.74958, 1, 1, 940, 940
IMU, 3894834018, 1, 0.001150433, -0.0001380058, 0.001094418, 0.4566813, -0.06660461, -9.800992, 0, 0, 28.74958, 1, 1, 715, 752
AROT, 3894834018, 0, 0, 0, 0, 0, 0, 0, 0, 0, 0, 0, 0
SIM2, 3894834018, 8124301.23354525, 9845349.43766963, 579.010009765625, -0.0003153052, 0.0004490101, -0.0001084758, 0
SIM2, 3894851017, 8124301.23354525, 9845349.43766963, 579.010009765625, -0.0003141984, 0.000447793, -0.0001134856, 0
RPM, 3894867017, 0, -1
FILE, @SYS/storage.bin, 832, 64, 
SIM2, 3894867017, 8124301.23354525, 9845349.43766963, 579.010009765625, -0.0003132511, 0.0004467037, -0.0001174027, 0
SIM2, 3894884016, 8124301.23354525, 9845349.43766963, 579.010009765625, -0.000311693, 0.0004447972, -0.000119236, 0
SIM2, 3894917015, 8124301.23354525, 9845349.43766963, 579.010009765625, -0.0003109674, 0.0004438236, -0.000111889, 0
SIM2, 3894934014, 8124301.23354525, 9845349.43766963, 579.010009765625, -0.0003101525, 0.0004426796, -0.0001076857, 0
SIM2, 3894950014, 8124301.23354525, 9845349.43766963, 579.010009765625, -0.0003094237, 0.0004414947, -0.0001071574, 0
SIM2, 3894968014, 8124301.23354525, 9845349.43766963, 579.010009765625, -0.0003085203, 0.0004400361, -0.0001092137, 0
GPS, 3894984014, 0, 6, 180542800, 2286, 10, 1.21, 37.6190007, -122.3748393, 4.99, 0, 125.0844, 0, 0, 1
GPA, 3894984014, 0, 2, 0.3, 0.3, 0.04, 0, 1, 3894850, 200, 0, 0, 0
SIM2, 3894984014, 8124301.23354525, 9845349.43766963, 579.010009765625, -0.0003070197, 0.0004374367, -0.0001151104, 0
SIM2, 3895017013, 8124301.23354525, 9845349.43766963, 579.010009765625, -0.0003065177, 0.0004364336, -0.000114892, 0
SIM2, 3895034012, 8124301.23354525, 9845349.43766963, 579.010009765625, -0.0003062012, 0.0004355778, -0.0001096786, 0
SIM2, 3895051011, 8124301.23354525, 9845349.43766963, 579.010009765625, -0.0003058179, 0.0004345679, -0.0001076645, 0
RPM, 3895067011, 0, -1
FILE, @SYS/storage.bin, 896, 64, 
SIM2, 3895067011, 8124301.23354525, 9845349.43766963, 579.010009765625, -0.0003054317, 0.0004335818, -0.0001078705, 0
SIM2, 3895085011, 8124301.23354525, 9845349.43766963, 579.010009765625, -0.00030483, 0.000431893, -0.0001103876, 0
SIM2, 3895117010, 8124301.23354525, 9845349.43766963, 579.010009765625, -0.0003044367, 0.0004311232, -0.0001145191, 0
SIM2, 3895134009, 8124301.23354525, 9845349.43766963, 579.010009765625, -0.0003042047, 0.0004305098, -0.0001189706, 0
GPS, 3895150009, 0, 6, 180543000, 2286, 10, 1.21, 37.6190007, -122.3748393, 4.99, 0, 125.0949, 0, 0, 1
GPA, 3895150009, 0, 2, 0.3, 0.3, 0.04, 0, 1, 3895050, 200, 0, 0, 0
IMU, 3895150009, 0, 0.0009824851, 4.625665E-05, 0.0009295736, 0.4550802, -0.06630795, -9.799655, 0, 0, 28.76669, 1, 1, 940, 940
IMU, 3895150009, 1, 0.001131863, -6.008263E-05, 0.000921586, 0.4545985, -0.06284345, -9.799112, 0, 0, 28.76669, 1, 1, 715, 752
AROT, 3895150009, 0, 0, 0, 0, 0, 0, 0, 0, 0, 0, 0, 0
SIM2, 3895150009, 8124301.23354525, 9845349.43766963, 579.010009765625, -0.0003038743, 0.0004298128, -0.0001234187, 0
XKTV, 3895168009, 0, 0.0001262182, 0.0001263522
XKTV, 3895168009, 1, 0.0001263695, 0.0001265033
SIM2, 3895168009, 8124301.23354525, 9845349.43766963, 579.010009765625, -0.0003032944, 0.0004286606, -0.0001178272, 0
SIM2, 3895184009, 8124301.23354525, 9845349.43766963, 579.010009765625, -0.0003023067, 0.0004260864, -0.0001152512, 0
SIM2, 3895217008, 8124301.23354525, 9845349.43766963, 579.010009765625, -0.0003017723, 0.0004246786, -0.0001160623, 0
SIM2, 3895234007, 8124301.23354525, 9845349.43766963, 579.010009765625, -0.0003013278, 0.0004232787, -0.0001176628, 0
SIM2, 3895251006, 8124301.23354525, 9845349.43766963, 579.010009765625, -0.0003011106, 0.0004221197, -0.0001097385, 0
RPM, 3895267006, 0, -1
FILE, @SYS/storage.bin, 960, 64, 
SIM2, 3895267006, 8124301.23354525, 9845349.43766963, 579.010009765625, -0.0003008993, 0.0004213302, -0.0001005626, 0
MAV, 3895284005, 0, 6275, 216, 0, 6, 0, 0
SIM2, 3895284005, 8124301.23354525, 9845349.43766963, 579.010009765625, -0.0002999337, 0.0004193414, -9.263903E-05, 0
GPS, 3895317004, 0, 6, 180543200, 2286, 10, 1.21, 37.6190007, -122.3748393, 4.99, 0, 125.316, 0, 0, 1
GPA, 3895317004, 0, 2, 0.3, 0.3, 0.04, 0, 1, 3895250, 200, 0, 0, 0
SIM2, 3895317004, 8124301.23354525, 9845349.43766963, 579.010009765625, -0.0002992649, 0.0004181095, -9.233573E-05, 0
SIM2, 3895334003, 8124301.23354525, 9845349.43766963, 579.010009765625, -0.0002985939, 0.0004168518, -9.430228E-05, 0
SIM2, 3895350003, 8124301.23354525, 9845349.43766963, 579.010009765625, -0.0002980462, 0.0004155206, -9.731086E-05, 0
SIM2, 3895368003, 8124301.23354525, 9845349.43766963, 579.010009765625, -0.0002977053, 0.0004140785, -0.0001013491, 0
SIM2, 3895384003, 8124301.23354525, 9845349.43766963, 579.010009765625, -0.0002971516, 0.0004118011, -8.029033E-05, 0
SIM2, 3895417002, 8124301.23354525, 9845349.43766963, 579.010009765625, -0.0002969026, 0.000410707, -7.186587E-05, 0
SIM2, 3895434001, 8124301.23354525, 9845349.43766963, 579.010009765625, -0.0002967044, 0.00040947, -6.690678E-05, 0
SIM2, 3895451000, 8124301.23354525, 9845349.43766963, 579.010009765625, -0.0002964771, 0.0004085194, -6.46298E-05, 0
FILE, @SYS/storage.bin, 1024, 64, 
GPS, 3895467000, 0, 6, 180543400, 2286, 10, 1.21, 37.6190007, -122.3748393, 4.99, 0, 125.7324, 0, 0, 1
GPA, 3895467000, 0, 2, 0.3, 0.3, 0.04, 0, 1, 3895450, 200, 0, 0, 0
BAT, 3895467000, 0, 12.6, 0, 0, 0, 0, 0, 0, 100, 1
MAG, 3895467000, 0, -34, 199, 409, 2, -21, -21, 0, 0, 0, 1, 3895467000
MAG, 3895467000, 1, -32, 233, 413, 5, 13, -18, 0, 0, 0, 1, 3895467000
MAG, 3895467000, 2, -36, 221, 432, 1, 1, 1, 0, 0, 0, 1, 3895467000
BARO, 3895467000, 0, -0.00876236, 101267, 34.97, 0.03175537, 3895467, 0, 34.96869, 1
BARO, 3895467000, 1, -0.2941308, 101266.5, 34.97, 0.03175537, 3895467, 0, 34.96869, 1
CTUN, 3895467000, -2.384186E-07, 0, 0, 0.500322, 0.142185, 0.142185, 0, NaN, 0, 6.440316, -8, -8
ATT, 3895467000, 0, 0.64, 0, 2.77, 280.83, 280.84, 0, 0, 3
RATE, 3895467000, -3.887869, 0.02552317, -0.0545543, -16.64481, -0.02430859, -0.2243952, 0.04710402, 0.09963296, -0.0004562968, -87.65812, -87.65812, 0, 0
ATSC, 3895467000, 1, 1, 1, 0, 0, 0
XKF4, 3895467000, 0, 0, 0.02, 0.01, 0.02, 0, 0.01149744, 0, 0, 0, 50, 98471, 0, 0
XKF1, 3895467000, 0, 0.64, 2.77, 280.83, 0.09949292, -0.03538077, 0.08655188, 0.09963816, -0.05565942, 0.07053939, -0.142185, 0.03, 0.02, -0.04, 4.98
XKF2, 3895467000, 0, 0, 0, -0.88, 0, 0, 225, 52, 416, 0, 0, 0, 0, 0, 0
XKF3, 3895467000, 0, 0, 0, 0, 0.13, -0.01, -0.16, 0, 0, 0, 1.93, 0, 0, 0
XKF5, 3895467000, 0, 0, 0, 0, 0, 1.23, 1.07, 0, 0, 0.5, 0.005744184, 0.0035892, 0.01172086
XKFS, 3895467000, 0, 0, 0, 0, 0, 0
XKQ, 3895467000, 0, 0.7703612, 0.01978447, 0.01505017, -0.637123
XKV1, 3895467000, 0, 0.001269656, 1.534057E-05, 1.552136E-05, 0.002327574, 0.09508199, 0.09341054, 0.03960769, 0.6000488, 0.5954444, 1.007112, 1.784364E-10, 1.654286E-10
XKV2, 3895467000, 0, 5.677695E-09, 1.237924E-05, 1.237924E-05, 1.257838E-07, 0, 0, 0, 0, 0, 0, 0, 0
XKF4, 3895467000, 1, 0, 0.01, 0.01, 0.02, 0, 0.01150209, 0, 0, 0, 50, 98471, 0, 0
XKF1, 3895467000, 1, 0.63, 2.76, 280.81, 0.09164315, -0.03676911, 0.08432075, 0.0974547, -0.05565942, 0.07053939, -0.1451176, 0.03, 0.01, -0.04, 4.98
XKF2, 3895467000, 1, 0, 0, -0.88, 0, 0, 225, 52, 416, 0, 0, 0, 0, 0, 0
XKF3, 3895467000, 1, 0, 0, 0, 0.11, -0.02, -0.16, 0, 0, 0, 1.92, 0, 0, 0
XKFS, 3895467000, 1, 0, 0, 0, 0, 0
